% program   : RTKLIB ver.2.4.3
% inp file  : ..//..//..//sample_data//TOW200AUS_S_20223590000_01D_30S_MO.rnx
% inp file  : ..//..//..//sample_data//TOW200AUS_S_20223590000_01D_MN.rnx
% inp file  : ..//..//..//sample_data//2022359all.l6
% obs start : 2022/12/25 00:00:00.0 GPST (week2242      0.0s)
% obs end   : 2022/12/25 23:59:30.0 GPST (week2242  86370.0s)
% pos mode  : PPP Kinematic
% freqs     : L1+2
% solution  : Forward
% elev mask : 10.0 deg
% dynamics  : off
% tidecorr  : on
% ionos opt : Iono-Free LC
% tropo opt : Estimate ZTD
% ephemeris : Broadcast+SSR APC
% navi sys  : GPS GLONASS Galileo QZSS
% amb res   : OFF
% amb glo   : ON
% val thres : 3.0
% antenna1  : LEIAR25.R3      NONE  ( 0.0000  0.0000  0.0000)
%
% (lat/lon/height=WGS84/ellipsoidal,Q=1:fix,2:float,3:sbas,4:dgps,5:single,6:ppp,ns=# of satellites)
%  GPST                  latitude(deg) longitude(deg)  height(m)   Q  ns   sdn(m)   sde(m)   sdu(m)  sdne(m)  sdeu(m)  sdun(m) age(s)  ratio
2022/12/25 00:00:30.000  -19.269280519  147.055692954    87.5131   6   5   5.3623   5.8151  14.4243  -3.1935  -2.4784  -3.9438   0.00    0.0
2022/12/25 00:01:00.000  -19.269275637  147.055699432    88.2962   6   5   3.5801   4.0126   9.6689  -1.9973   0.5614  -3.4517   0.00    0.0
2022/12/25 00:01:30.000  -19.269273545  147.055699704    88.6187   6   5   2.7673   3.2062   7.5078  -1.4307   1.4484  -3.1992   0.00    0.0
2022/12/25 00:02:00.000  -19.269270563  147.055696385    88.1571   6  14   1.8858   2.1253   4.8570  -0.5005  -0.4070  -2.0774   0.00    0.0
2022/12/25 00:02:30.000  -19.269269608  147.055698355    88.6778   6  19   1.3402   1.6620   3.3851  -0.3123   0.4353  -1.4009   0.00    0.0
2022/12/25 00:03:00.000  -19.269271545  147.055696618    89.3908   6  19   0.9719   1.3977   2.4763  -0.2504   0.5433  -0.9391   0.00    0.0
2022/12/25 00:03:30.000  -19.269276346  147.055696236    90.1438   6  19   0.7297   1.2162   1.8980  -0.2171   0.5504  -0.6453   0.00    0.0
2022/12/25 00:04:00.000  -19.269275966  147.055696641    89.8715   6  19   0.5683   1.0789   1.5206  -0.1910   0.5227  -0.4627   0.00    0.0
2022/12/25 00:04:30.000  -19.269273557  147.055698007    89.3947   6  19   0.4581   0.9717   1.3055  -0.1717   0.4677  -0.3312   0.00    0.0
2022/12/25 00:05:00.000  -19.269271700  147.055698711    89.2721   6  19   0.3796   0.8817   1.1416  -0.1559   0.4166  -0.2424   0.00    0.0
2022/12/25 00:05:30.000  -19.269271379  147.055696962    89.2138   6  20   0.3302   0.8090   1.0292  -0.1105   0.3390  -0.2191   0.00    0.0
2022/12/25 00:06:00.000  -19.269271553  147.055697061    89.3216   6  20   0.2873   0.7459   0.9276  -0.0791   0.2781  -0.1892   0.00    0.0
2022/12/25 00:06:30.000  -19.269271877  147.055694910    89.0821   6  20   0.2529   0.6908   0.8411  -0.0489   0.2253  -0.1662   0.00    0.0
2022/12/25 00:07:00.000  -19.269270515  147.055693591    88.5920   6  20   0.2243   0.6417   0.7662  -0.0165   0.1807  -0.1458   0.00    0.0
2022/12/25 00:07:30.000  -19.269270573  147.055691964    88.3711   6  20   0.2004   0.5976   0.7016   0.0304   0.1417  -0.1287   0.00    0.0
2022/12/25 00:08:00.000  -19.269270515  147.055691615    88.1653   6  20   0.1803   0.5579   0.6456   0.0399   0.1062  -0.1142   0.00    0.0
2022/12/25 00:08:30.000  -19.269270636  147.055691741    88.1354   6  19   0.1655   0.5242   0.5979   0.0257   0.0558  -0.0964   0.00    0.0
2022/12/25 00:09:00.000  -19.269271077  147.055691261    88.2392   6  19   0.1515   0.4932   0.5561   0.0189  -0.0522  -0.0828   0.00    0.0
2022/12/25 00:09:30.000  -19.269271554  147.055690323    88.1902   6  19   0.1394   0.4650   0.5191   0.0121  -0.0830  -0.0711   0.00    0.0
2022/12/25 00:10:00.000  -19.269271477  147.055690393    88.2036   6  19   0.1288   0.4384   0.4857  -0.0067  -0.1009  -0.0612   0.00    0.0
2022/12/25 00:10:30.000  -19.269271407  147.055690645    88.2370   6  19   0.1194   0.4142   0.4558  -0.0111  -0.1110  -0.0526   0.00    0.0
2022/12/25 00:11:00.000  -19.269271346  147.055690902    88.2409   6  19   0.1112   0.3921   0.4288  -0.0131  -0.1167  -0.0452   0.00    0.0
2022/12/25 00:11:30.000  -19.269270800  147.055690917    88.1747   6  19   0.1039   0.3717   0.4042  -0.0138  -0.1196  -0.0389   0.00    0.0
2022/12/25 00:12:00.000  -19.269270864  147.055691074    88.1227   6  19   0.0974   0.3529   0.3818  -0.0137  -0.1206  -0.0335   0.00    0.0
2022/12/25 00:12:30.000  -19.269270838  147.055690428    88.0545   6  19   0.0916   0.3356   0.3612  -0.0132  -0.1203  -0.0290   0.00    0.0
2022/12/25 00:13:00.000  -19.269270515  147.055691356    88.1376   6  17   0.0916   0.3217   0.3496   0.0272  -0.1268  -0.0463   0.00    0.0
2022/12/25 00:13:30.000  -19.269270698  147.055691637    88.2213   6  18   0.0877   0.3082   0.3345   0.0299  -0.1284  -0.0460   0.00    0.0
2022/12/25 00:14:00.000  -19.269270689  147.055691977    88.2727   6  18   0.0837   0.2954   0.3195   0.0312  -0.1281  -0.0435   0.00    0.0
2022/12/25 00:14:30.000  -19.269270723  147.055692270    88.2640   6  18   0.0803   0.2833   0.3056   0.0320  -0.1269  -0.0421   0.00    0.0
2022/12/25 00:15:00.000  -19.269270787  147.055692595    88.2722   6  18   0.0772   0.2719   0.2928   0.0328  -0.1245  -0.0404   0.00    0.0
2022/12/25 00:15:30.000  -19.269270769  147.055692212    88.2002   6  18   0.0742   0.2611   0.2806   0.0330  -0.1215  -0.0391   0.00    0.0
2022/12/25 00:16:00.000  -19.269270902  147.055691890    88.1194   6  18   0.0714   0.2507   0.2691   0.0329  -0.1182  -0.0380   0.00    0.0
2022/12/25 00:16:30.000  -19.269270759  147.055692066    88.1455   6  18   0.0688   0.2409   0.2581   0.0325  -0.1146  -0.0368   0.00    0.0
2022/12/25 00:17:00.000  -19.269270645  147.055692166    88.0846   6  18   0.0663   0.2314   0.2477   0.0319  -0.1107  -0.0356   0.00    0.0
2022/12/25 00:17:30.000  -19.269270602  147.055692337    88.1112   6  18   0.0639   0.2223   0.2378   0.0311  -0.1068  -0.0345   0.00    0.0
2022/12/25 00:18:00.000  -19.269270690  147.055692399    88.1094   6  18   0.0617   0.2137   0.2285   0.0301  -0.1027  -0.0334   0.00    0.0
2022/12/25 00:18:30.000  -19.269270754  147.055692321    88.2016   6  18   0.0596   0.2054   0.2196   0.0292  -0.0987  -0.0323   0.00    0.0
2022/12/25 00:19:00.000  -19.269270968  147.055691477    88.1164   6  18   0.0577   0.1977   0.2112   0.0285  -0.0945  -0.0312   0.00    0.0
2022/12/25 00:20:00.000  -19.269270919  147.055691971    88.1761   6  18   0.0557   0.1899   0.2021   0.0279  -0.0887  -0.0293   0.00    0.0
2022/12/25 00:20:30.000  -19.269271090  147.055692380    88.1903   6  18   0.0537   0.1823   0.1941   0.0267  -0.0836  -0.0280   0.00    0.0
2022/12/25 00:21:00.000  -19.269270763  147.055692504    88.1491   6  18   0.0519   0.1752   0.1867   0.0255  -0.0788  -0.0269   0.00    0.0
2022/12/25 00:21:30.000  -19.269270673  147.055692465    88.1589   6  18   0.0502   0.1685   0.1798   0.0244  -0.0744  -0.0259   0.00    0.0
2022/12/25 00:22:00.000  -19.269270810  147.055692427    88.1459   6  18   0.0486   0.1622   0.1735   0.0233  -0.0702  -0.0249   0.00    0.0
2022/12/25 00:22:30.000  -19.269270788  147.055692244    88.1190   6  18   0.0472   0.1564   0.1675   0.0223  -0.0663  -0.0241   0.00    0.0
2022/12/25 00:23:00.000  -19.269270550  147.055692582    88.1276   6  20   0.0476   0.1512   0.1619   0.0243  -0.0629  -0.0242   0.00    0.0
2022/12/25 00:23:30.000  -19.269270667  147.055692502    88.1017   6  20   0.0453   0.1459   0.1564   0.0235  -0.0598  -0.0225   0.00    0.0
2022/12/25 00:24:00.000  -19.269270651  147.055692644    88.1255   6  20   0.0437   0.1409   0.1514   0.0228  -0.0569  -0.0215   0.00    0.0
2022/12/25 00:24:30.000  -19.269270556  147.055692662    88.1547   6  20   0.0424   0.1362   0.1468   0.0220  -0.0541  -0.0208   0.00    0.0
2022/12/25 00:25:00.000  -19.269270585  147.055692740    88.0972   6  20   0.0412   0.1319   0.1425   0.0215  -0.0515  -0.0201   0.00    0.0
2022/12/25 00:25:30.000  -19.269270527  147.055692925    88.1589   6  20   0.0402   0.1277   0.1384   0.0210  -0.0490  -0.0195   0.00    0.0
2022/12/25 00:26:00.000  -19.269270594  147.055692931    88.1970   6  20   0.0391   0.1237   0.1346   0.0202  -0.0467  -0.0192   0.00    0.0
2022/12/25 00:26:30.000  -19.269270726  147.055692873    88.1571   6  20   0.0382   0.1199   0.1310   0.0197  -0.0444  -0.0186   0.00    0.0
2022/12/25 00:27:00.000  -19.269270662  147.055693133    88.2081   6  20   0.0373   0.1164   0.1276   0.0191  -0.0424  -0.0183   0.00    0.0
2022/12/25 00:27:30.000  -19.269270860  147.055692646    88.1523   6  20   0.0365   0.1130   0.1244   0.0187  -0.0404  -0.0179   0.00    0.0
2022/12/25 00:28:00.000  -19.269270761  147.055692870    88.1739   6  20   0.0357   0.1097   0.1213   0.0183  -0.0386  -0.0176   0.00    0.0
2022/12/25 00:28:30.000  -19.269270741  147.055692685    88.1724   6  20   0.0350   0.1066   0.1184   0.0178  -0.0369  -0.0171   0.00    0.0
2022/12/25 00:29:00.000  -19.269270856  147.055692605    88.1700   6  20   0.0343   0.1036   0.1157   0.0171  -0.0352  -0.0168   0.00    0.0
2022/12/25 00:29:30.000  -19.269270772  147.055692609    88.1704   6  20   0.0336   0.1008   0.1131   0.0168  -0.0337  -0.0167   0.00    0.0
2022/12/25 00:30:00.000  -19.269270819  147.055692624    88.1423   6  20   0.0329   0.0981   0.1106   0.0163  -0.0322  -0.0163   0.00    0.0
2022/12/25 00:30:30.000  -19.269270904  147.055692546    88.1360   6  20   0.0324   0.0956   0.1083   0.0160  -0.0308  -0.0161   0.00    0.0
2022/12/25 00:31:00.000  -19.269270863  147.055692550    88.0963   6  20   0.0318   0.0931   0.1060   0.0155  -0.0296  -0.0159   0.00    0.0
2022/12/25 00:31:30.000  -19.269270925  147.055692551    88.0660   6  20   0.0312   0.0908   0.1039   0.0150  -0.0284  -0.0157   0.00    0.0
2022/12/25 00:32:00.000  -19.269270870  147.055692587    88.1154   6  20   0.0307   0.0885   0.1019   0.0146  -0.0272  -0.0153   0.00    0.0
2022/12/25 00:32:30.000  -19.269270941  147.055692613    88.1390   6  20   0.0303   0.0863   0.0999   0.0143  -0.0260  -0.0150   0.00    0.0
2022/12/25 00:33:00.000  -19.269270935  147.055692519    88.1332   6  18   0.0330   0.0850   0.0993   0.0131  -0.0234  -0.0183   0.00    0.0
2022/12/25 00:33:30.000  -19.269270795  147.055692486    88.1104   6  18   0.0325   0.0830   0.0976   0.0122  -0.0224  -0.0182   0.00    0.0
2022/12/25 00:34:00.000  -19.269270705  147.055692555    88.1503   6  18   0.0320   0.0811   0.0959   0.0116  -0.0212  -0.0179   0.00    0.0
2022/12/25 00:34:30.000  -19.269270659  147.055692876    88.1617   6  18   0.0317   0.0794   0.0943   0.0111  -0.0202  -0.0178   0.00    0.0
2022/12/25 00:35:00.000  -19.269270808  147.055692731    88.1858   6  18   0.0313   0.0776   0.0929   0.0108  -0.0193  -0.0178   0.00    0.0
2022/12/25 00:35:30.000  -19.269270954  147.055692825    88.2296   6  18   0.0310   0.0761   0.0914   0.0103  -0.0185  -0.0177   0.00    0.0
2022/12/25 00:36:00.000  -19.269270729  147.055692768    88.1919   6  18   0.0307   0.0744   0.0900   0.0098  -0.0177  -0.0176   0.00    0.0
2022/12/25 00:36:30.000  -19.269270994  147.055692808    88.2150   6  18   0.0303   0.0728   0.0886   0.0100  -0.0176  -0.0172   0.00    0.0
2022/12/25 00:37:00.000  -19.269271149  147.055692969    88.2132   6  17   0.0300   0.0714   0.0873   0.0094  -0.0166  -0.0173   0.00    0.0
2022/12/25 00:37:30.000  -19.269270974  147.055692622    88.1695   6  17   0.0297   0.0700   0.0863   0.0092  -0.0156  -0.0171   0.00    0.0
2022/12/25 00:38:00.000  -19.269270897  147.055692659    88.1499   6  17   0.0294   0.0686   0.0853   0.0091  -0.0146  -0.0171   0.00    0.0
2022/12/25 00:38:30.000  -19.269271035  147.055692612    88.1860   6  17   0.0292   0.0673   0.0843   0.0087  -0.0137  -0.0169   0.00    0.0
2022/12/25 00:39:00.000  -19.269270845  147.055692509    88.1717   6  17   0.0290   0.0661   0.0834   0.0085  -0.0127  -0.0168   0.00    0.0
2022/12/25 00:39:30.000  -19.269270864  147.055692890    88.2180   6  17   0.0287   0.0649   0.0825   0.0081  -0.0116  -0.0167   0.00    0.0
2022/12/25 00:40:00.000  -19.269271000  147.055692855    88.2375   6  17   0.0285   0.0637   0.0816   0.0080  -0.0107  -0.0166   0.00    0.0
2022/12/25 00:40:30.000  -19.269271125  147.055692739    88.1880   6  17   0.0282   0.0625   0.0807   0.0073  -0.0103  -0.0166   0.00    0.0
2022/12/25 00:41:00.000  -19.269270944  147.055692622    88.1766   6  17   0.0280   0.0615   0.0799   0.0072  -0.0090  -0.0165   0.00    0.0
2022/12/25 00:41:30.000  -19.269270998  147.055692512    88.0914   6  17   0.0278   0.0604   0.0791   0.0069  -0.0084  -0.0164   0.00    0.0
2022/12/25 00:42:00.000  -19.269270858  147.055692556    88.1254   6  17   0.0276   0.0594   0.0784   0.0066  -0.0076  -0.0163   0.00    0.0
2022/12/25 00:42:30.000  -19.269270943  147.055692686    88.1899   6  17   0.0274   0.0585   0.0776   0.0062  -0.0067  -0.0162   0.00    0.0
2022/12/25 00:43:00.000  -19.269270834  147.055692458    88.1716   6  20   0.0272   0.0575   0.0768   0.0059  -0.0051  -0.0161   0.00    0.0
2022/12/25 00:43:30.000  -19.269270873  147.055692405    88.1346   6  20   0.0259   0.0566   0.0751   0.0051  -0.0038  -0.0133   0.00    0.0
2022/12/25 00:44:00.000  -19.269270913  147.055692447    88.1159   6  20   0.0254   0.0557   0.0741   0.0049  -0.0023  -0.0122   0.00    0.0
2022/12/25 00:44:30.000  -19.269270887  147.055692499    88.1230   6  21   0.0251   0.0549   0.0731   0.0047   0.0029  -0.0113   0.00    0.0
2022/12/25 00:45:00.000  -19.269270914  147.055692522    88.1362   6  20   0.0248   0.0540   0.0723   0.0046   0.0033  -0.0113   0.00    0.0
2022/12/25 00:45:30.000  -19.269270861  147.055692493    88.1468   6  20   0.0245   0.0532   0.0716   0.0037   0.0047  -0.0109   0.00    0.0
2022/12/25 00:46:00.000  -19.269271006  147.055692614    88.1366   6  20   0.0243   0.0524   0.0709   0.0034   0.0050  -0.0107   0.00    0.0
2022/12/25 00:46:30.000  -19.269270844  147.055692640    88.1480   6  20   0.0241   0.0517   0.0703   0.0037   0.0053  -0.0106   0.00    0.0
2022/12/25 00:47:00.000  -19.269270890  147.055692555    88.1197   6  20   0.0239   0.0509   0.0697   0.0025   0.0052  -0.0103   0.00    0.0
2022/12/25 00:47:30.000  -19.269271059  147.055692608    88.1646   6  20   0.0238   0.0503   0.0690   0.0029   0.0064  -0.0100   0.00    0.0
2022/12/25 00:48:00.000  -19.269270923  147.055692625    88.1127   6  20   0.0236   0.0495   0.0685   0.0015   0.0067  -0.0101   0.00    0.0
2022/12/25 00:48:30.000  -19.269270941  147.055692596    88.1262   6  20   0.0234   0.0489   0.0680   0.0011   0.0064  -0.0098   0.00    0.0
2022/12/25 00:49:00.000  -19.269270928  147.055692610    88.1165   6  20   0.0233   0.0481   0.0674  -0.0021   0.0062  -0.0096   0.00    0.0
2022/12/25 00:49:30.000  -19.269270963  147.055692668    88.1183   6  20   0.0231   0.0476   0.0669  -0.0025   0.0067  -0.0098   0.00    0.0
2022/12/25 00:50:00.000  -19.269270900  147.055692662    88.1373   6  20   0.0231   0.0470   0.0664  -0.0015   0.0072  -0.0097   0.00    0.0
2022/12/25 00:50:30.000  -19.269270889  147.055692728    88.1036   6  20   0.0228   0.0463   0.0660  -0.0033   0.0077  -0.0096   0.00    0.0
2022/12/25 00:51:00.000  -19.269270915  147.055692708    88.1178   6  19   0.0231   0.0460   0.0663  -0.0044   0.0042  -0.0075   0.00    0.0
2022/12/25 00:51:30.000  -19.269270988  147.055692784    88.1446   6  19   0.0230   0.0455   0.0660  -0.0049   0.0050  -0.0073   0.00    0.0
2022/12/25 00:52:00.000  -19.269270956  147.055692817    88.1398   6  19   0.0229   0.0448   0.0657  -0.0054   0.0052  -0.0069   0.00    0.0
2022/12/25 00:52:30.000  -19.269271002  147.055692741    88.1124   6  19   0.0227   0.0444   0.0654  -0.0058   0.0056  -0.0068   0.00    0.0
2022/12/25 00:53:00.000  -19.269271001  147.055692680    88.1093   6  19   0.0229   0.0439   0.0664  -0.0056   0.0074  -0.0094   0.00    0.0
2022/12/25 00:53:30.000  -19.269270976  147.055692778    88.1435   6  19   0.0228   0.0434   0.0662  -0.0056   0.0073  -0.0092   0.00    0.0
2022/12/25 00:54:00.000  -19.269270953  147.055692670    88.1202   6  19   0.0223   0.0430   0.0658  -0.0062   0.0075  -0.0103   0.00    0.0
2022/12/25 00:54:30.000  -19.269271087  147.055692698    88.1045   6  19   0.0226   0.0425   0.0656  -0.0055   0.0086  -0.0092   0.00    0.0
2022/12/25 00:55:00.000  -19.269270821  147.055692660    88.1324   6  19   0.0221   0.0420   0.0653  -0.0067   0.0084  -0.0097   0.00    0.0
2022/12/25 00:55:30.000  -19.269270948  147.055692696    88.1386   6  19   0.0224   0.0416   0.0652  -0.0059   0.0091  -0.0089   0.00    0.0
2022/12/25 00:56:00.000  -19.269271169  147.055692703    88.1707   6  19   0.0224   0.0413   0.0649  -0.0057   0.0098  -0.0092   0.00    0.0
2022/12/25 00:56:30.000  -19.269271075  147.055692762    88.1321   6  19   0.0223   0.0409   0.0647  -0.0059   0.0099  -0.0091   0.00    0.0
2022/12/25 00:57:00.000  -19.269270810  147.055692544    88.0823   6  19   0.0218   0.0404   0.0645  -0.0070   0.0096  -0.0097   0.00    0.0
2022/12/25 00:57:30.000  -19.269271077  147.055692743    88.1133   6  19   0.0216   0.0400   0.0633  -0.0044   0.0086  -0.0050   0.00    0.0
2022/12/25 00:58:00.000  -19.269271101  147.055692771    88.0982   6  19   0.0212   0.0396   0.0627  -0.0038   0.0084  -0.0017   0.00    0.0
2022/12/25 00:58:30.000  -19.269271004  147.055692746    88.1154   6  20   0.0219   0.0394   0.0640  -0.0063   0.0111  -0.0089   0.00    0.0
2022/12/25 00:59:00.000  -19.269271102  147.055692708    88.0338   6  20   0.0212   0.0387   0.0626  -0.0039   0.0105  -0.0051   0.00    0.0
2022/12/25 00:59:30.000  -19.269270891  147.055692804    88.0915   6  20   0.0209   0.0383   0.0620  -0.0029   0.0104  -0.0024   0.00    0.0
2022/12/25 01:00:00.000  -19.269271048  147.055692705    88.0919   6  20   0.0209   0.0379   0.0616  -0.0029   0.0103   0.0037   0.00    0.0
2022/12/25 01:00:30.000  -19.269271127  147.055692778    88.1665   6  20   0.0216   0.0377   0.0632  -0.0055   0.0131  -0.0093   0.00    0.0
2022/12/25 01:01:00.000  -19.269270957  147.055692764    88.1207   6  20   0.0215   0.0375   0.0631  -0.0055   0.0136  -0.0093   0.00    0.0
2022/12/25 01:01:30.000  -19.269270930  147.055692705    88.1179   6  20   0.0214   0.0371   0.0630  -0.0057   0.0134  -0.0092   0.00    0.0
2022/12/25 01:02:00.000  -19.269270993  147.055692664    88.0983   6  20   0.0215   0.0367   0.0628  -0.0058   0.0138  -0.0093   0.00    0.0
2022/12/25 01:02:30.000  -19.269271004  147.055692781    88.1072   6  20   0.0208   0.0363   0.0616  -0.0038   0.0126  -0.0053   0.00    0.0
2022/12/25 01:03:00.000  -19.269271088  147.055692930    88.1215   6  19   0.0212   0.0361   0.0630   0.0025   0.0106  -0.0096   0.00    0.0
2022/12/25 01:03:30.000  -19.269270808  147.055692693    88.0960   6  19   0.0207   0.0357   0.0614   0.0023   0.0112  -0.0059   0.00    0.0
2022/12/25 01:04:00.000  -19.269271109  147.055692829    88.1102   6  19   0.0215   0.0357   0.0625  -0.0046   0.0137  -0.0107   0.00    0.0
2022/12/25 01:04:30.000  -19.269271090  147.055692732    88.1026   6  19   0.0213   0.0354   0.0622  -0.0045   0.0140  -0.0100   0.00    0.0
2022/12/25 01:05:00.000  -19.269271055  147.055692842    88.1014   6  19   0.0206   0.0350   0.0609  -0.0026   0.0127  -0.0062   0.00    0.0
2022/12/25 01:05:30.000  -19.269271027  147.055692792    88.1063   6  19   0.0203   0.0347   0.0606  -0.0021   0.0127  -0.0018   0.00    0.0
2022/12/25 01:06:00.000  -19.269271139  147.055692855    88.1205   6  19   0.0202   0.0345   0.0603   0.0015   0.0122   0.0029   0.00    0.0
2022/12/25 01:06:30.000  -19.269270918  147.055692591    88.0620   6  19   0.0198   0.0342   0.0600   0.0008   0.0123   0.0045   0.00    0.0
2022/12/25 01:07:00.000  -19.269271053  147.055692897    88.1225   6  19   0.0200   0.0339   0.0599   0.0009   0.0122   0.0059   0.00    0.0
2022/12/25 01:07:30.000  -19.269271017  147.055692868    88.1202   6  19   0.0198   0.0337   0.0599   0.0020   0.0123   0.0057   0.00    0.0
2022/12/25 01:08:00.000  -19.269270878  147.055692761    88.1038   6  19   0.0196   0.0335   0.0597   0.0024   0.0125   0.0055   0.00    0.0
2022/12/25 01:08:30.000  -19.269270985  147.055692805    88.1057   6  19   0.0195   0.0334   0.0597   0.0026   0.0128   0.0062   0.00    0.0
2022/12/25 01:09:00.000  -19.269271088  147.055692879    88.0987   6  19   0.0195   0.0331   0.0596   0.0031   0.0129   0.0063   0.00    0.0
2022/12/25 01:09:30.000  -19.269271172  147.055693011    88.1245   6  19   0.0201   0.0327   0.0597   0.0022   0.0127   0.0076   0.00    0.0
2022/12/25 01:10:00.000  -19.269271072  147.055692953    88.1280   6  19   0.0199   0.0326   0.0597   0.0019   0.0130   0.0073   0.00    0.0
2022/12/25 01:10:30.000  -19.269270847  147.055692798    88.1279   6  19   0.0196   0.0323   0.0596   0.0032   0.0130   0.0066   0.00    0.0
2022/12/25 01:11:00.000  -19.269270889  147.055692619    88.1014   6  19   0.0196   0.0321   0.0598   0.0028   0.0131   0.0071   0.00    0.0
2022/12/25 01:11:30.000  -19.269270939  147.055692930    88.0994   6  19   0.0196   0.0321   0.0598   0.0032   0.0132   0.0078   0.00    0.0
2022/12/25 01:12:00.000  -19.269270998  147.055692962    88.1034   6  19   0.0196   0.0318   0.0599   0.0030   0.0131   0.0074   0.00    0.0
2022/12/25 01:12:30.000  -19.269271099  147.055693059    88.1337   6  19   0.0192   0.0316   0.0599   0.0026   0.0134   0.0068   0.00    0.0
2022/12/25 01:13:00.000  -19.269270966  147.055693068    88.1330   6  18   0.0198   0.0333   0.0607   0.0069   0.0096   0.0062   0.00    0.0
2022/12/25 01:13:30.000  -19.269270949  147.055693164    88.1449   6  18   0.0201   0.0332   0.0609   0.0068   0.0098   0.0075   0.00    0.0
2022/12/25 01:14:00.000  -19.269270917  147.055692976    88.1126   6  18   0.0200   0.0331   0.0610   0.0068   0.0099   0.0076   0.00    0.0
2022/12/25 01:14:30.000  -19.269270955  147.055692995    88.1201   6  18   0.0197   0.0330   0.0611   0.0068   0.0101   0.0075   0.00    0.0
2022/12/25 01:15:00.000  -19.269270829  147.055692879    88.1193   6  18   0.0198   0.0327   0.0614   0.0069   0.0101   0.0073   0.00    0.0
2022/12/25 01:15:30.000  -19.269270849  147.055692809    88.1265   6  18   0.0198   0.0327   0.0614   0.0067   0.0105   0.0074   0.00    0.0
2022/12/25 01:16:00.000  -19.269271027  147.055692684    88.1152   6  18   0.0198   0.0325   0.0616   0.0070   0.0105   0.0076   0.00    0.0
2022/12/25 01:16:30.000  -19.269271151  147.055693125    88.1565   6  18   0.0198   0.0323   0.0617   0.0068   0.0106   0.0077   0.00    0.0
2022/12/25 01:17:00.000  -19.269270967  147.055693046    88.1226   6  18   0.0197   0.0323   0.0618   0.0067   0.0111   0.0072   0.00    0.0
2022/12/25 01:17:30.000  -19.269270997  147.055692935    88.1235   6  18   0.0196   0.0323   0.0620   0.0069   0.0113   0.0074   0.00    0.0
2022/12/25 01:18:00.000  -19.269271086  147.055693013    88.1652   6  18   0.0197   0.0321   0.0622   0.0069   0.0117   0.0073   0.00    0.0
2022/12/25 01:18:30.000  -19.269270910  147.055692955    88.1279   6  18   0.0195   0.0319   0.0623   0.0069   0.0117   0.0075   0.00    0.0
2022/12/25 01:19:00.000  -19.269271056  147.055693010    88.1439   6  18   0.0194   0.0319   0.0625   0.0072   0.0119   0.0074   0.00    0.0
2022/12/25 01:19:30.000  -19.269270818  147.055692678    88.1223   6  18   0.0195   0.0317   0.0627   0.0069   0.0119   0.0070   0.00    0.0
2022/12/25 01:20:00.000  -19.269270907  147.055692982    88.1227   6  18   0.0195   0.0316   0.0629   0.0071   0.0121   0.0072   0.00    0.0
2022/12/25 01:21:30.000  -19.269271191  147.055692821    88.1303   6  18   0.0683   0.0413   0.1700   0.0145  -0.0520   0.0774   0.00    0.0
2022/12/25 01:22:00.000  -19.269270792  147.055693043    88.1547   6  18   0.0513   0.0373   0.1305   0.0139  -0.0363   0.0561   0.00    0.0
2022/12/25 01:22:30.000  -19.269270903  147.055692890    88.1515   6  18   0.0442   0.0359   0.1145   0.0140  -0.0292   0.0469   0.00    0.0
2022/12/25 01:23:00.000  -19.269271005  147.055692922    88.1748   6  19   0.0402   0.0352   0.1055   0.0139  -0.0249   0.0415   0.00    0.0
2022/12/25 01:23:30.000  -19.269270978  147.055692747    88.1627   6  20   0.0374   0.0339   0.0999   0.0131  -0.0214   0.0380   0.00    0.0
2022/12/25 01:24:00.000  -19.269270914  147.055692893    88.1574   6  20   0.0355   0.0332   0.0960   0.0134  -0.0186   0.0354   0.00    0.0
2022/12/25 01:24:30.000  -19.269270844  147.055693134    88.1717   6  19   0.0341   0.0328   0.0942   0.0130  -0.0174   0.0341   0.00    0.0
2022/12/25 01:25:00.000  -19.269270999  147.055692876    88.1347   6  19   0.0332   0.0325   0.0923   0.0131  -0.0158   0.0328   0.00    0.0
2022/12/25 01:25:30.000  -19.269270758  147.055692933    88.1570   6  19   0.0323   0.0322   0.0908   0.0130  -0.0145   0.0318   0.00    0.0
2022/12/25 01:26:00.000  -19.269270964  147.055693167    88.1608   6  19   0.0317   0.0321   0.0896   0.0131  -0.0130   0.0308   0.00    0.0
2022/12/25 01:26:30.000  -19.269270801  147.055692941    88.1231   6  20   0.0312   0.0318   0.0885   0.0133  -0.0120   0.0300   0.00    0.0
2022/12/25 01:27:00.000  -19.269270871  147.055692943    88.1517   6  20   0.0308   0.0315   0.0867   0.0130  -0.0099   0.0294   0.00    0.0
2022/12/25 01:27:30.000  -19.269270789  147.055692891    88.1485   6  20   0.0303   0.0315   0.0856   0.0131  -0.0083   0.0286   0.00    0.0
2022/12/25 01:28:00.000  -19.269270941  147.055692948    88.1644   6  20   0.0300   0.0313   0.0848   0.0132  -0.0066   0.0281   0.00    0.0
2022/12/25 01:28:30.000  -19.269270810  147.055692915    88.1552   6  20   0.0298   0.0312   0.0840   0.0133  -0.0051   0.0276   0.00    0.0
2022/12/25 01:29:00.000  -19.269270859  147.055693033    88.1629   6  20   0.0295   0.0312   0.0834   0.0134  -0.0018   0.0270   0.00    0.0
2022/12/25 01:29:30.000  -19.269270889  147.055693005    88.1390   6  20   0.0292   0.0310   0.0829   0.0133   0.0033   0.0265   0.00    0.0
2022/12/25 01:30:00.000  -19.269270885  147.055692952    88.1568   6  20   0.0289   0.0309   0.0824   0.0134   0.0049   0.0261   0.00    0.0
2022/12/25 01:30:30.000  -19.269271083  147.055693255    88.1600   6  20   0.0287   0.0308   0.0819   0.0135   0.0059   0.0256   0.00    0.0
2022/12/25 01:31:00.000  -19.269270825  147.055692957    88.1502   6  20   0.0286   0.0307   0.0816   0.0133   0.0071   0.0251   0.00    0.0
2022/12/25 01:31:30.000  -19.269270913  147.055692956    88.1706   6  20   0.0284   0.0306   0.0813   0.0135   0.0074   0.0247   0.00    0.0
2022/12/25 01:32:00.000  -19.269270938  147.055692970    88.1647   6  20   0.0283   0.0306   0.0809   0.0135   0.0082   0.0243   0.00    0.0
2022/12/25 01:32:30.000  -19.269271050  147.055693202    88.1406   6  20   0.0280   0.0306   0.0806   0.0135   0.0092   0.0238   0.00    0.0
2022/12/25 01:33:00.000  -19.269270917  147.055692937    88.1227   6  20   0.0281   0.0304   0.0840   0.0137   0.0068   0.0221   0.00    0.0
2022/12/25 01:33:30.000  -19.269270900  147.055693045    88.1609   6  20   0.0279   0.0304   0.0810   0.0136   0.0066   0.0204   0.00    0.0
2022/12/25 01:34:00.000  -19.269271027  147.055693120    88.1618   6  20   0.0277   0.0303   0.0799   0.0136   0.0067   0.0192   0.00    0.0
2022/12/25 01:34:30.000  -19.269270942  147.055693013    88.1643   6  20   0.0276   0.0302   0.0792   0.0137   0.0070   0.0185   0.00    0.0
2022/12/25 01:35:00.000  -19.269270893  147.055693073    88.1368   6  20   0.0276   0.0301   0.0787   0.0136   0.0074   0.0180   0.00    0.0
2022/12/25 01:35:30.000  -19.269270972  147.055693006    88.1626   6  20   0.0274   0.0300   0.0783   0.0135   0.0078   0.0172   0.00    0.0
2022/12/25 01:36:00.000  -19.269270773  147.055692861    88.1650   6  20   0.0273   0.0298   0.0780   0.0136   0.0078   0.0165   0.00    0.0
2022/12/25 01:36:30.000  -19.269270844  147.055692996    88.1658   6  19   0.0272   0.0299   0.0804   0.0136   0.0059   0.0173   0.00    0.0
2022/12/25 01:37:00.000  -19.269270825  147.055693027    88.1770   6  19   0.0272   0.0298   0.0801   0.0135   0.0059   0.0165   0.00    0.0
2022/12/25 01:37:30.000  -19.269270812  147.055693093    88.1570   6  19   0.0272   0.0296   0.0798   0.0135   0.0062   0.0160   0.00    0.0
2022/12/25 01:38:00.000  -19.269270783  147.055692996    88.1529   6  19   0.0270   0.0296   0.0795   0.0132   0.0066   0.0153   0.00    0.0
2022/12/25 01:38:30.000  -19.269270916  147.055693026    88.1819   6  19   0.0268   0.0296   0.0792   0.0133   0.0072   0.0145   0.00    0.0
2022/12/25 01:39:00.000  -19.269270904  147.055693121    88.1898   6  19   0.0267   0.0295   0.0790   0.0133   0.0076   0.0134   0.00    0.0
2022/12/25 01:39:30.000  -19.269270882  147.055693115    88.1985   6  19   0.0266   0.0295   0.0787   0.0133   0.0076   0.0128   0.00    0.0
2022/12/25 01:40:00.000  -19.269270947  147.055693122    88.2052   6  19   0.0267   0.0293   0.0785   0.0132   0.0079   0.0119   0.00    0.0
2022/12/25 01:40:30.000  -19.269270836  147.055693125    88.1796   6  19   0.0265   0.0293   0.0783   0.0133   0.0083   0.0110   0.00    0.0
2022/12/25 01:41:00.000  -19.269270881  147.055693198    88.1714   6  19   0.0264   0.0292   0.0780   0.0132   0.0089   0.0101   0.00    0.0
2022/12/25 01:41:30.000  -19.269270953  147.055693248    88.1897   6  19   0.0263   0.0290   0.0778   0.0131   0.0090   0.0094   0.00    0.0
2022/12/25 01:42:00.000  -19.269270823  147.055693063    88.1571   6  19   0.0262   0.0290   0.0776   0.0131   0.0094   0.0080   0.00    0.0
2022/12/25 01:42:30.000  -19.269270797  147.055693110    88.1496   6  19   0.0260   0.0290   0.0774   0.0132   0.0098   0.0067   0.00    0.0
2022/12/25 01:43:00.000  -19.269270907  147.055693144    88.1650   6  19   0.0261   0.0288   0.0772   0.0131   0.0101   0.0058   0.00    0.0
2022/12/25 01:43:30.000  -19.269270959  147.055693202    88.1643   6  19   0.0260   0.0287   0.0770   0.0128   0.0101   0.0045   0.00    0.0
2022/12/25 01:44:00.000  -19.269270955  147.055693220    88.1496   6  19   0.0258   0.0286   0.0768   0.0129   0.0108   0.0013   0.00    0.0
2022/12/25 01:44:30.000  -19.269270979  147.055693140    88.1653   6  19   0.0257   0.0286   0.0766   0.0128   0.0111  -0.0041   0.00    0.0
2022/12/25 01:45:00.000  -19.269270996  147.055693257    88.1422   6  19   0.0256   0.0283   0.0764   0.0128   0.0111  -0.0048   0.00    0.0
2022/12/25 01:45:30.000  -19.269270774  147.055693075    88.1109   6  19   0.0255   0.0283   0.0762   0.0125   0.0116  -0.0063   0.00    0.0
2022/12/25 01:46:00.000  -19.269270903  147.055693133    88.1531   6  19   0.0254   0.0282   0.0761   0.0126   0.0118  -0.0069   0.00    0.0
2022/12/25 01:46:30.000  -19.269271087  147.055693224    88.1790   6  19   0.0253   0.0281   0.0759   0.0124   0.0123  -0.0083   0.00    0.0
2022/12/25 01:47:00.000  -19.269270764  147.055693180    88.1139   6  19   0.0253   0.0281   0.0758   0.0124   0.0126  -0.0094   0.00    0.0
2022/12/25 01:47:30.000  -19.269270872  147.055693186    88.1421   6  19   0.0251   0.0280   0.0756   0.0123   0.0128  -0.0094   0.00    0.0
2022/12/25 01:48:00.000  -19.269271007  147.055693162    88.1552   6  19   0.0250   0.0280   0.0754   0.0120   0.0132  -0.0101   0.00    0.0
2022/12/25 01:48:30.000  -19.269270894  147.055693116    88.1389   6  19   0.0250   0.0277   0.0753   0.0121   0.0134  -0.0104   0.00    0.0
2022/12/25 01:49:00.000  -19.269270840  147.055693105    88.1463   6  19   0.0250   0.0276   0.0752   0.0121   0.0136  -0.0109   0.00    0.0
2022/12/25 01:49:30.000  -19.269271010  147.055693214    88.1797   6  19   0.0248   0.0275   0.0751   0.0118   0.0139  -0.0110   0.00    0.0
2022/12/25 01:50:00.000  -19.269271150  147.055693185    88.2107   6  19   0.0248   0.0275   0.0749   0.0117   0.0143  -0.0116   0.00    0.0
2022/12/25 01:50:30.000  -19.269270945  147.055693179    88.1418   6  19   0.0244   0.0274   0.0748   0.0116   0.0146  -0.0118   0.00    0.0
2022/12/25 01:51:00.000  -19.269270888  147.055693189    88.1094   6  19   0.0245   0.0273   0.0747   0.0115   0.0147  -0.0123   0.00    0.0
2022/12/25 01:51:30.000  -19.269270986  147.055693135    88.1462   6  19   0.0264   0.0273   0.0772   0.0119   0.0144  -0.0190   0.00    0.0
2022/12/25 01:52:00.000  -19.269270969  147.055693172    88.1358   6  19   0.0255   0.0272   0.0764   0.0118   0.0144  -0.0173   0.00    0.0
2022/12/25 01:52:30.000  -19.269270888  147.055693022    88.1292   6  19   0.0252   0.0272   0.0763   0.0117   0.0145  -0.0171   0.00    0.0
2022/12/25 01:53:00.000  -19.269270983  147.055693120    88.1166   6  19   0.0255   0.0292   0.0769   0.0106   0.0121  -0.0154   0.00    0.0
2022/12/25 01:53:30.000  -19.269271065  147.055693083    88.1808   6  19   0.0251   0.0287   0.0752   0.0114   0.0138  -0.0150   0.00    0.0
2022/12/25 01:54:00.000  -19.269271050  147.055692918    88.1516   6  20   0.0260   0.0286   0.0758   0.0115   0.0145  -0.0185   0.00    0.0
2022/12/25 01:54:30.000  -19.269270906  147.055693087    88.1531   6  20   0.0252   0.0279   0.0722   0.0114   0.0102  -0.0177   0.00    0.0
2022/12/25 01:55:00.000  -19.269270959  147.055693134    88.1446   6  20   0.0258   0.0277   0.0715   0.0115   0.0083  -0.0196   0.00    0.0
2022/12/25 01:55:30.000  -19.269270967  147.055693138    88.1387   6  20   0.0257   0.0275   0.0707   0.0113   0.0071  -0.0198   0.00    0.0
2022/12/25 01:56:00.000  -19.269270970  147.055693002    88.1679   6  20   0.0257   0.0274   0.0704   0.0114   0.0063  -0.0202   0.00    0.0
2022/12/25 01:56:30.000  -19.269271014  147.055693056    88.1524   6  20   0.0256   0.0273   0.0700   0.0114   0.0054  -0.0203   0.00    0.0
2022/12/25 01:57:00.000  -19.269271134  147.055693066    88.1651   6  20   0.0256   0.0272   0.0698   0.0114   0.0051  -0.0205   0.00    0.0
2022/12/25 01:57:30.000  -19.269271026  147.055693154    88.1297   6  20   0.0255   0.0271   0.0696   0.0111   0.0044  -0.0210   0.00    0.0
2022/12/25 01:58:00.000  -19.269270994  147.055693040    88.1433   6  20   0.0254   0.0270   0.0694   0.0113   0.0036  -0.0211   0.00    0.0
2022/12/25 01:58:30.000  -19.269270986  147.055693037    88.1545   6  20   0.0254   0.0268   0.0693   0.0112   0.0036  -0.0214   0.00    0.0
2022/12/25 01:59:00.000  -19.269270936  147.055693036    88.1266   6  19   0.0253   0.0268   0.0691   0.0111   0.0023  -0.0215   0.00    0.0
2022/12/25 01:59:30.000  -19.269271023  147.055693032    88.1719   6  19   0.0252   0.0267   0.0690   0.0112   0.0013  -0.0215   0.00    0.0
2022/12/25 02:00:00.000  -19.269271054  147.055693060    88.1682   6  19   0.0252   0.0266   0.0689   0.0111   0.0021  -0.0218   0.00    0.0
2022/12/25 02:00:30.000  -19.269271061  147.055693090    88.2078   6  18   0.0250   0.0282   0.0729   0.0111   0.0154  -0.0217   0.00    0.0
2022/12/25 02:01:00.000  -19.269270901  147.055693095    88.1191   6  18   0.0249   0.0281   0.0726   0.0109   0.0151  -0.0216   0.00    0.0
2022/12/25 02:01:30.000  -19.269271019  147.055692993    88.1554   6  18   0.0249   0.0280   0.0724   0.0107   0.0149  -0.0216   0.00    0.0
2022/12/25 02:02:00.000  -19.269271031  147.055693077    88.1569   6  19   0.0247   0.0279   0.0721   0.0109   0.0148  -0.0215   0.00    0.0
2022/12/25 02:02:30.000  -19.269270960  147.055693159    88.0960   6  19   0.0247   0.0278   0.0719   0.0109   0.0146  -0.0217   0.00    0.0
2022/12/25 02:03:00.000  -19.269270965  147.055693226    88.0898   6  21   0.0249   0.0278   0.0724   0.0107   0.0147  -0.0226   0.00    0.0
2022/12/25 02:03:30.000  -19.269270856  147.055693066    88.0932   6  22   0.0248   0.0267   0.0701   0.0110   0.0116  -0.0229   0.00    0.0
2022/12/25 02:04:00.000  -19.269270993  147.055693102    88.1178   6  22   0.0246   0.0259   0.0691   0.0106   0.0102  -0.0229   0.00    0.0
2022/12/25 02:04:30.000  -19.269270919  147.055693103    88.1295   6  21   0.0244   0.0256   0.0686   0.0106   0.0094  -0.0229   0.00    0.0
2022/12/25 02:05:00.000  -19.269271048  147.055693089    88.1199   6  21   0.0244   0.0253   0.0682   0.0103   0.0092  -0.0231   0.00    0.0
2022/12/25 02:05:30.000  -19.269270984  147.055693043    88.1558   6  21   0.0243   0.0250   0.0679   0.0103   0.0086  -0.0229   0.00    0.0
2022/12/25 02:06:00.000  -19.269271027  147.055693098    88.1362   6  22   0.0242   0.0249   0.0677   0.0103   0.0084  -0.0229   0.00    0.0
2022/12/25 02:06:30.000  -19.269271001  147.055692972    88.1556   6  22   0.0241   0.0248   0.0674   0.0100   0.0083  -0.0230   0.00    0.0
2022/12/25 02:07:00.000  -19.269270988  147.055693077    88.1330   6  22   0.0241   0.0248   0.0672   0.0100   0.0079  -0.0229   0.00    0.0
2022/12/25 02:07:30.000  -19.269271022  147.055693067    88.1185   6  22   0.0239   0.0245   0.0670   0.0099   0.0078  -0.0228   0.00    0.0
2022/12/25 02:08:00.000  -19.269271098  147.055693144    88.1553   6  22   0.0240   0.0244   0.0668   0.0098   0.0076  -0.0228   0.00    0.0
2022/12/25 02:08:30.000  -19.269271054  147.055693050    88.1490   6  22   0.0239   0.0243   0.0666   0.0097   0.0077  -0.0228   0.00    0.0
2022/12/25 02:09:00.000  -19.269270944  147.055693073    88.1158   6  22   0.0239   0.0243   0.0665   0.0093   0.0074  -0.0227   0.00    0.0
2022/12/25 02:09:30.000  -19.269270979  147.055693118    88.1175   6  22   0.0236   0.0243   0.0659   0.0095   0.0072  -0.0222   0.00    0.0
2022/12/25 02:10:00.000  -19.269271005  147.055693062    88.0892   6  22   0.0234   0.0241   0.0657   0.0096   0.0072  -0.0220   0.00    0.0
2022/12/25 02:10:30.000  -19.269270905  147.055693012    88.1613   6  22   0.0233   0.0240   0.0654   0.0096   0.0066  -0.0217   0.00    0.0
2022/12/25 02:11:00.000  -19.269270973  147.055693104    88.1209   6  22   0.0231   0.0241   0.0651   0.0094   0.0069  -0.0217   0.00    0.0
2022/12/25 02:11:30.000  -19.269270977  147.055693161    88.1266   6  23   0.0235   0.0239   0.0656   0.0093   0.0071  -0.0223   0.00    0.0
2022/12/25 02:12:00.000  -19.269270954  147.055693103    88.1569   6  23   0.0235   0.0237   0.0643   0.0091   0.0048  -0.0223   0.00    0.0
2022/12/25 02:12:30.000  -19.269270970  147.055693064    88.1568   6  23   0.0232   0.0235   0.0637   0.0093   0.0022  -0.0223   0.00    0.0
2022/12/25 02:13:00.000  -19.269271026  147.055693119    88.1876   6  24   0.0231   0.0233   0.0633   0.0088   0.0002  -0.0221   0.00    0.0
2022/12/25 02:13:30.000  -19.269271050  147.055693144    88.1394   6  24   0.0230   0.0231   0.0622   0.0087   0.0046  -0.0219   0.00    0.0
2022/12/25 02:14:00.000  -19.269270966  147.055693152    88.1202   6  24   0.0230   0.0231   0.0616   0.0086   0.0053  -0.0219   0.00    0.0
2022/12/25 02:14:30.000  -19.269271010  147.055693095    88.1417   6  24   0.0229   0.0229   0.0612   0.0086   0.0059  -0.0217   0.00    0.0
2022/12/25 02:15:00.000  -19.269270946  147.055693087    88.1099   6  24   0.0227   0.0228   0.0608   0.0084   0.0056  -0.0217   0.00    0.0
2022/12/25 02:15:30.000  -19.269270967  147.055693137    88.1060   6  24   0.0228   0.0229   0.0605   0.0082   0.0061  -0.0216   0.00    0.0
2022/12/25 02:16:00.000  -19.269270990  147.055693159    88.1175   6  24   0.0225   0.0226   0.0602   0.0085   0.0059  -0.0214   0.00    0.0
2022/12/25 02:16:30.000  -19.269270921  147.055693104    88.1149   6  24   0.0226   0.0227   0.0600   0.0083   0.0060  -0.0212   0.00    0.0
2022/12/25 02:17:00.000  -19.269270886  147.055693051    88.1484   6  24   0.0227   0.0226   0.0597   0.0078   0.0064  -0.0212   0.00    0.0
2022/12/25 02:17:30.000  -19.269271019  147.055693170    88.1328   6  24   0.0225   0.0224   0.0594   0.0080   0.0060  -0.0209   0.00    0.0
2022/12/25 02:18:00.000  -19.269271029  147.055693164    88.1370   6  24   0.0225   0.0224   0.0593   0.0078   0.0063  -0.0210   0.00    0.0
2022/12/25 02:18:30.000  -19.269271050  147.055693044    88.1888   6  24   0.0223   0.0224   0.0590   0.0080   0.0063  -0.0208   0.00    0.0
2022/12/25 02:19:00.000  -19.269271029  147.055693227    88.1198   6  24   0.0224   0.0221   0.0589   0.0076   0.0062  -0.0209   0.00    0.0
2022/12/25 02:19:30.000  -19.269271010  147.055693153    88.1417   6  24   0.0223   0.0221   0.0587   0.0075   0.0063  -0.0207   0.00    0.0
2022/12/25 02:20:00.000  -19.269271050  147.055693098    88.1220   6  24   0.0222   0.0222   0.0584   0.0075   0.0063  -0.0205   0.00    0.0
2022/12/25 02:20:30.000  -19.269270963  147.055693112    88.0793   6  24   0.0219   0.0219   0.0582   0.0076   0.0065  -0.0203   0.00    0.0
2022/12/25 02:21:00.000  -19.269271006  147.055693155    88.1591   6  24   0.0220   0.0219   0.0580   0.0074   0.0065  -0.0203   0.00    0.0
2022/12/25 02:22:30.000  -19.269270910  147.055693080    88.1581   6  23   0.0381   0.0279   0.0676  -0.0088  -0.0188  -0.0269   0.00    0.0
2022/12/25 02:23:00.000  -19.269270821  147.055693098    88.1264   6  20   0.0358   0.0263   0.0664  -0.0107  -0.0092  -0.0297   0.00    0.0
2022/12/25 02:23:30.000  -19.269270897  147.055693171    88.1111   6  20   0.0334   0.0253   0.0651  -0.0089  -0.0075  -0.0285   0.00    0.0
2022/12/25 02:24:00.000  -19.269270881  147.055693181    88.1144   6  20   0.0320   0.0246   0.0644  -0.0074  -0.0068  -0.0279   0.00    0.0
2022/12/25 02:24:30.000  -19.269271053  147.055693322    88.0260   6  20   0.0312   0.0242   0.0640  -0.0063  -0.0065  -0.0274   0.00    0.0
2022/12/25 02:25:00.000  -19.269271028  147.055693136    88.1421   6  20   0.0306   0.0239   0.0637  -0.0056  -0.0063  -0.0273   0.00    0.0
2022/12/25 02:25:30.000  -19.269270761  147.055692909    88.1686   6  20   0.0303   0.0238   0.0634  -0.0048  -0.0060  -0.0270   0.00    0.0
2022/12/25 02:26:00.000  -19.269270939  147.055693138    88.1225   6  20   0.0299   0.0234   0.0633  -0.0036  -0.0065  -0.0270   0.00    0.0
2022/12/25 02:26:30.000  -19.269270986  147.055693238    88.1129   6  20   0.0296   0.0233   0.0631  -0.0034  -0.0064  -0.0269   0.00    0.0
2022/12/25 02:27:00.000  -19.269270918  147.055693293    88.1027   6  20   0.0294   0.0234   0.0629  -0.0015  -0.0064  -0.0268   0.00    0.0
2022/12/25 02:27:30.000  -19.269270749  147.055693357    88.0517   6  20   0.0292   0.0232   0.0628  -0.0014  -0.0067  -0.0267   0.00    0.0
2022/12/25 02:28:00.000  -19.269270879  147.055693226    88.0889   6  20   0.0290   0.0232   0.0626   0.0012  -0.0066  -0.0267   0.00    0.0
2022/12/25 02:28:30.000  -19.269270995  147.055693095    88.2011   6  20   0.0290   0.0230   0.0626   0.0021  -0.0069  -0.0266   0.00    0.0
2022/12/25 02:29:00.000  -19.269270898  147.055693148    88.1621   6  20   0.0288   0.0230   0.0625   0.0025  -0.0071  -0.0266   0.00    0.0
2022/12/25 02:29:30.000  -19.269270989  147.055693067    88.1935   6  20   0.0287   0.0228   0.0623   0.0034  -0.0073  -0.0264   0.00    0.0
2022/12/25 02:30:00.000  -19.269270955  147.055693100    88.1438   6  20   0.0286   0.0228   0.0623   0.0037  -0.0074  -0.0264   0.00    0.0
2022/12/25 02:30:30.000  -19.269271119  147.055693094    88.1840   6  20   0.0285   0.0227   0.0622   0.0036  -0.0073  -0.0264   0.00    0.0
2022/12/25 02:31:00.000  -19.269270789  147.055693195    88.1140   6  20   0.0284   0.0227   0.0621   0.0040  -0.0077  -0.0263   0.00    0.0
2022/12/25 02:31:30.000  -19.269271072  147.055693230    88.1408   6  20   0.0283   0.0226   0.0619   0.0041  -0.0079  -0.0262   0.00    0.0
2022/12/25 02:32:00.000  -19.269270999  147.055693189    88.1698   6  20   0.0282   0.0226   0.0618   0.0047  -0.0080  -0.0261   0.00    0.0
2022/12/25 02:32:30.000  -19.269270951  147.055693123    88.1399   6  20   0.0281   0.0225   0.0618   0.0047  -0.0082  -0.0261   0.00    0.0
2022/12/25 02:33:00.000  -19.269271008  147.055693038    88.1970   6  21   0.0282   0.0227   0.0645   0.0030  -0.0116  -0.0251   0.00    0.0
2022/12/25 02:33:30.000  -19.269271086  147.055693150    88.1871   6  21   0.0269   0.0226   0.0629   0.0048  -0.0120  -0.0236   0.00    0.0
2022/12/25 02:34:00.000  -19.269271049  147.055693133    88.1533   6  21   0.0263   0.0226   0.0622   0.0051  -0.0123  -0.0230   0.00    0.0
2022/12/25 02:34:30.000  -19.269271090  147.055693153    88.1558   6  21   0.0260   0.0226   0.0618   0.0055  -0.0125  -0.0225   0.00    0.0
2022/12/25 02:35:00.000  -19.269270991  147.055693023    88.1767   6  21   0.0258   0.0226   0.0616   0.0056  -0.0126  -0.0223   0.00    0.0
2022/12/25 02:35:30.000  -19.269270937  147.055693089    88.1418   6  21   0.0256   0.0225   0.0614   0.0052  -0.0126  -0.0220   0.00    0.0
2022/12/25 02:36:00.000  -19.269270936  147.055693219    88.1151   6  21   0.0256   0.0224   0.0612   0.0054  -0.0127  -0.0219   0.00    0.0
2022/12/25 02:36:30.000  -19.269270952  147.055693190    88.1229   6  21   0.0254   0.0224   0.0610   0.0057  -0.0128  -0.0216   0.00    0.0
2022/12/25 02:37:00.000  -19.269270948  147.055693012    88.1186   6  21   0.0253   0.0224   0.0609   0.0055  -0.0127  -0.0214   0.00    0.0
2022/12/25 02:37:30.000  -19.269270923  147.055693120    88.1312   6  21   0.0251   0.0223   0.0608   0.0053  -0.0128  -0.0211   0.00    0.0
2022/12/25 02:38:00.000  -19.269270964  147.055693080    88.1495   6  21   0.0250   0.0222   0.0606   0.0056  -0.0130  -0.0209   0.00    0.0
2022/12/25 02:38:30.000  -19.269271034  147.055693132    88.1122   6  21   0.0248   0.0226   0.0605   0.0058  -0.0128  -0.0207   0.00    0.0
2022/12/25 02:39:00.000  -19.269270941  147.055693273    88.0397   6  21   0.0247   0.0224   0.0604   0.0054  -0.0128  -0.0206   0.00    0.0
2022/12/25 02:39:30.000  -19.269270993  147.055693111    88.1609   6  21   0.0247   0.0224   0.0603   0.0054  -0.0129  -0.0203   0.00    0.0
2022/12/25 02:40:00.000  -19.269270877  147.055693012    88.1589   6  21   0.0245   0.0225   0.0601   0.0054  -0.0130  -0.0202   0.00    0.0
2022/12/25 02:40:30.000  -19.269270947  147.055693164    88.1202   6  21   0.0244   0.0223   0.0600   0.0055  -0.0130  -0.0198   0.00    0.0
2022/12/25 02:41:00.000  -19.269270955  147.055693092    88.1869   6  21   0.0243   0.0223   0.0600   0.0053  -0.0130  -0.0197   0.00    0.0
2022/12/25 02:41:30.000  -19.269270917  147.055693292    88.0605   6  21   0.0241   0.0224   0.0599   0.0052  -0.0129  -0.0194   0.00    0.0
2022/12/25 02:42:00.000  -19.269270960  147.055693103    88.1036   6  21   0.0241   0.0223   0.0597   0.0051  -0.0130  -0.0191   0.00    0.0
2022/12/25 02:42:30.000  -19.269270957  147.055693101    88.1501   6  21   0.0239   0.0223   0.0596   0.0050  -0.0130  -0.0188   0.00    0.0
2022/12/25 02:43:00.000  -19.269270934  147.055693194    88.0855   6  22   0.0238   0.0223   0.0595   0.0051  -0.0129  -0.0185   0.00    0.0
2022/12/25 02:43:30.000  -19.269270971  147.055693235    88.1727   6  22   0.0237   0.0220   0.0588   0.0052  -0.0118  -0.0185   0.00    0.0
2022/12/25 02:44:00.000  -19.269270990  147.055693242    88.1537   6  22   0.0235   0.0218   0.0584   0.0054  -0.0113  -0.0182   0.00    0.0
2022/12/25 02:44:30.000  -19.269270888  147.055693077    88.1609   6  22   0.0235   0.0217   0.0582   0.0054  -0.0111  -0.0178   0.00    0.0
2022/12/25 02:45:00.000  -19.269270906  147.055693111    88.1490   6  22   0.0233   0.0217   0.0581   0.0052  -0.0108  -0.0178   0.00    0.0
2022/12/25 02:45:30.000  -19.269270973  147.055693109    88.1479   6  22   0.0234   0.0217   0.0580   0.0050  -0.0107  -0.0175   0.00    0.0
2022/12/25 02:46:00.000  -19.269270956  147.055693151    88.1503   6  22   0.0260   0.0217   0.0578   0.0039  -0.0107  -0.0179   0.00    0.0
2022/12/25 02:46:30.000  -19.269270927  147.055693183    88.1276   6  22   0.0388   0.0217   0.0622  -0.0090  -0.0059  -0.0313   0.00    0.0
2022/12/25 02:47:00.000  -19.269270976  147.055693275    88.1185   6  22   0.0343   0.0214   0.0600   0.0028  -0.0107  -0.0261   0.00    0.0
2022/12/25 02:47:30.000  -19.269271023  147.055693121    88.1853   6  22   0.0392   0.0218   0.0624  -0.0086  -0.0063  -0.0318   0.00    0.0
2022/12/25 02:48:00.000  -19.269270975  147.055693190    88.1321   6  22   0.0394   0.0217   0.0624  -0.0086  -0.0065  -0.0318   0.00    0.0
2022/12/25 02:48:30.000  -19.269271092  147.055693153    88.1011   6  22   0.0332   0.0213   0.0602   0.0029  -0.0110  -0.0262   0.00    0.0
2022/12/25 02:49:00.000  -19.269271022  147.055693167    88.1242   6  22   0.0396   0.0217   0.0625  -0.0084  -0.0068  -0.0321   0.00    0.0
2022/12/25 02:49:30.000  -19.269270992  147.055693207    88.1526   6  21   0.0347   0.0212   0.0603   0.0047  -0.0109  -0.0267   0.00    0.0
2022/12/25 02:50:00.000  -19.269270950  147.055693184    88.0966   6  21   0.0399   0.0217   0.0627  -0.0083  -0.0068  -0.0323   0.00    0.0
2022/12/25 02:50:30.000  -19.269270945  147.055693063    88.1572   6  21   0.0348   0.0211   0.0607   0.0044  -0.0112  -0.0269   0.00    0.0
2022/12/25 02:51:00.000  -19.269270918  147.055693224    88.1570   6  21   0.0330   0.0210   0.0600   0.0071  -0.0124  -0.0248   0.00    0.0
2022/12/25 02:51:30.000  -19.269270818  147.055693229    88.0980   6  21   0.0321   0.0209   0.0596   0.0081  -0.0128  -0.0238   0.00    0.0
2022/12/25 02:52:00.000  -19.269270948  147.055693185    88.1359   6  21   0.0315   0.0208   0.0596   0.0089  -0.0132  -0.0232   0.00    0.0
2022/12/25 02:52:30.000  -19.269270990  147.055693188    88.1248   6  21   0.0311   0.0208   0.0594   0.0092  -0.0134  -0.0228   0.00    0.0
2022/12/25 02:53:00.000  -19.269271094  147.055693166    88.1242   6  22   0.0309   0.0206   0.0595   0.0093  -0.0136  -0.0225   0.00    0.0
2022/12/25 02:53:30.000  -19.269270993  147.055693215    88.0672   6  22   0.0302   0.0205   0.0588   0.0102  -0.0134  -0.0233   0.00    0.0
2022/12/25 02:54:00.000  -19.269270940  147.055693131    88.1120   6  22   0.0299   0.0204   0.0587   0.0104  -0.0133  -0.0234   0.00    0.0
2022/12/25 02:54:30.000  -19.269270974  147.055693209    88.1053   6  22   0.0298   0.0204   0.0587   0.0106  -0.0134  -0.0236   0.00    0.0
2022/12/25 02:55:00.000  -19.269270850  147.055693204    88.1400   6  22   0.0296   0.0203   0.0587   0.0106  -0.0132  -0.0236   0.00    0.0
2022/12/25 02:55:30.000  -19.269271083  147.055693235    88.1576   6  22   0.0294   0.0202   0.0587   0.0109  -0.0132  -0.0236   0.00    0.0
2022/12/25 02:56:00.000  -19.269270866  147.055693222    88.1394   6  22   0.0292   0.0202   0.0588   0.0111  -0.0135  -0.0235   0.00    0.0
2022/12/25 02:56:30.000  -19.269270904  147.055693277    88.1085   6  23   0.0291   0.0202   0.0589   0.0115  -0.0135  -0.0236   0.00    0.0
2022/12/25 02:57:00.000  -19.269270966  147.055693128    88.0803   6  23   0.0291   0.0202   0.0590   0.0114  -0.0135  -0.0237   0.00    0.0
2022/12/25 02:57:30.000  -19.269270909  147.055693286    88.1078   6  23   0.0286   0.0202   0.0590   0.0114  -0.0136  -0.0236   0.00    0.0
2022/12/25 02:58:00.000  -19.269270826  147.055693259    88.0816   6  23   0.0288   0.0202   0.0591   0.0117  -0.0136  -0.0236   0.00    0.0
2022/12/25 02:58:30.000  -19.269270852  147.055693273    88.1037   6  23   0.0286   0.0201   0.0593   0.0116  -0.0136  -0.0238   0.00    0.0
2022/12/25 02:59:00.000  -19.269270924  147.055693351    88.1032   6  23   0.0287   0.0199   0.0593   0.0115  -0.0137  -0.0237   0.00    0.0
2022/12/25 02:59:30.000  -19.269271004  147.055693335    88.1267   6  23   0.0287   0.0201   0.0594   0.0117  -0.0137  -0.0238   0.00    0.0
2022/12/25 03:00:00.000  -19.269270986  147.055693192    88.1342   6  23   0.0285   0.0200   0.0595   0.0120  -0.0138  -0.0238   0.00    0.0
2022/12/25 03:00:30.000  -19.269270859  147.055693179    88.1066   6  23   0.0282   0.0201   0.0596   0.0118  -0.0137  -0.0238   0.00    0.0
2022/12/25 03:01:00.000  -19.269270888  147.055693274    88.1053   6  23   0.0280   0.0201   0.0597   0.0121  -0.0139  -0.0239   0.00    0.0
2022/12/25 03:01:30.000  -19.269270855  147.055693219    88.1040   6  23   0.0280   0.0200   0.0598   0.0119  -0.0138  -0.0238   0.00    0.0
2022/12/25 03:02:00.000  -19.269270891  147.055693319    88.1105   6  23   0.0279   0.0199   0.0599   0.0118  -0.0138  -0.0240   0.00    0.0
2022/12/25 03:02:30.000  -19.269270874  147.055693200    88.0971   6  23   0.0278   0.0200   0.0600   0.0119  -0.0139  -0.0239   0.00    0.0
2022/12/25 03:03:00.000  -19.269270801  147.055693195    88.0688   6  20   0.0277   0.0207   0.0619   0.0116  -0.0154  -0.0246   0.00    0.0
2022/12/25 03:03:30.000  -19.269270834  147.055693264    88.1030   6  18   0.0274   0.0226   0.0640   0.0123  -0.0158  -0.0232   0.00    0.0
2022/12/25 03:04:00.000  -19.269270903  147.055693167    88.0841   6  18   0.0270   0.0224   0.0636   0.0121  -0.0153  -0.0226   0.00    0.0
2022/12/25 03:04:30.000  -19.269270914  147.055693361    88.0961   6  18   0.0268   0.0224   0.0634   0.0118  -0.0151  -0.0222   0.00    0.0
2022/12/25 03:05:00.000  -19.269270986  147.055693298    88.1093   6  18   0.0266   0.0224   0.0633   0.0118  -0.0147  -0.0220   0.00    0.0
2022/12/25 03:05:30.000  -19.269270962  147.055693210    88.1056   6  18   0.0264   0.0222   0.0632   0.0118  -0.0145  -0.0218   0.00    0.0
2022/12/25 03:06:00.000  -19.269270921  147.055693279    88.1066   6  18   0.0263   0.0222   0.0632   0.0116  -0.0144  -0.0216   0.00    0.0
2022/12/25 03:06:30.000  -19.269270973  147.055693150    88.1306   6  18   0.0262   0.0221   0.0631   0.0116  -0.0142  -0.0214   0.00    0.0
2022/12/25 03:07:00.000  -19.269270931  147.055692995    88.1039   6  18   0.0260   0.0221   0.0632   0.0116  -0.0140  -0.0212   0.00    0.0
2022/12/25 03:07:30.000  -19.269270933  147.055693319    88.1077   6  18   0.0259   0.0220   0.0632   0.0115  -0.0139  -0.0212   0.00    0.0
2022/12/25 03:08:00.000  -19.269270931  147.055693225    88.0931   6  18   0.0258   0.0220   0.0632   0.0114  -0.0138  -0.0210   0.00    0.0
2022/12/25 03:08:30.000  -19.269270952  147.055693140    88.0594   6  18   0.0257   0.0220   0.0632   0.0115  -0.0136  -0.0210   0.00    0.0
2022/12/25 03:09:00.000  -19.269270918  147.055693209    88.1038   6  18   0.0256   0.0220   0.0632   0.0112  -0.0135  -0.0208   0.00    0.0
2022/12/25 03:09:30.000  -19.269270868  147.055693255    88.1221   6  18   0.0255   0.0219   0.0633   0.0112  -0.0134  -0.0206   0.00    0.0
2022/12/25 03:10:00.000  -19.269270903  147.055693291    88.0898   6  18   0.0254   0.0219   0.0633   0.0112  -0.0132  -0.0206   0.00    0.0
2022/12/25 03:10:30.000  -19.269270927  147.055693270    88.0792   6  18   0.0253   0.0218   0.0633   0.0112  -0.0129  -0.0206   0.00    0.0
2022/12/25 03:11:00.000  -19.269270889  147.055693189    88.1198   6  18   0.0252   0.0218   0.0634   0.0112  -0.0128  -0.0205   0.00    0.0
2022/12/25 03:11:30.000  -19.269270916  147.055693338    88.0801   6  18   0.0291   0.0228   0.0698   0.0151  -0.0190  -0.0291   0.00    0.0
2022/12/25 03:12:00.000  -19.269270805  147.055693304    88.0608   6  18   0.0291   0.0228   0.0699   0.0151  -0.0190  -0.0291   0.00    0.0
2022/12/25 03:12:30.000  -19.269270974  147.055693205    88.1571   6  18   0.0292   0.0228   0.0701   0.0152  -0.0189  -0.0293   0.00    0.0
2022/12/25 03:13:00.000  -19.269270730  147.055693392    88.0834   6  18   0.0292   0.0228   0.0702   0.0150  -0.0188  -0.0293   0.00    0.0
2022/12/25 03:13:30.000  -19.269270975  147.055693238    88.1164   6  18   0.0291   0.0226   0.0703   0.0152  -0.0188  -0.0293   0.00    0.0
2022/12/25 03:14:00.000  -19.269270913  147.055693134    88.1253   6  18   0.0293   0.0227   0.0709   0.0148  -0.0181  -0.0298   0.00    0.0
2022/12/25 03:14:30.000  -19.269270905  147.055693443    88.0880   6  18   0.0292   0.0226   0.0709   0.0150  -0.0183  -0.0298   0.00    0.0
2022/12/25 03:15:00.000  -19.269271053  147.055693175    88.1670   6  18   0.0293   0.0228   0.0713   0.0150  -0.0180  -0.0300   0.00    0.0
2022/12/25 03:15:30.000  -19.269270973  147.055693230    88.1350   6  16   0.0328   0.0230   0.0727   0.0168  -0.0174  -0.0293   0.00    0.0
2022/12/25 03:16:00.000  -19.269271079  147.055693275    88.1093   6  16   0.0330   0.0232   0.0738   0.0170  -0.0163  -0.0294   0.00    0.0
2022/12/25 03:16:30.000  -19.269270725  147.055693130    88.1987   6  15   0.0332   0.0232   0.0743   0.0170  -0.0161  -0.0292   0.00    0.0
2022/12/25 03:17:00.000  -19.269271151  147.055693223    88.1639   6  15   0.0333   0.0232   0.0745   0.0171  -0.0160  -0.0294   0.00    0.0
2022/12/25 03:17:30.000  -19.269270938  147.055693178    88.1317   6  15   0.0334   0.0232   0.0746   0.0171  -0.0160  -0.0296   0.00    0.0
2022/12/25 03:18:00.000  -19.269270902  147.055693231    88.1334   6  15   0.0334   0.0232   0.0743   0.0173  -0.0164  -0.0294   0.00    0.0
2022/12/25 03:18:30.000  -19.269271151  147.055693168    88.2124   6  15   0.0336   0.0232   0.0750   0.0171  -0.0158  -0.0299   0.00    0.0
2022/12/25 03:19:00.000  -19.269270934  147.055693158    88.1582   6  15   0.0337   0.0232   0.0751   0.0173  -0.0157  -0.0301   0.00    0.0
2022/12/25 03:19:30.000  -19.269270946  147.055693204    88.1400   6  15   0.0338   0.0232   0.0752   0.0173  -0.0157  -0.0302   0.00    0.0
2022/12/25 03:20:00.000  -19.269271228  147.055693183    88.1684   6  15   0.0339   0.0231   0.0754   0.0173  -0.0156  -0.0304   0.00    0.0
2022/12/25 03:20:30.000  -19.269270904  147.055693196    88.1642   6  15   0.0339   0.0231   0.0755   0.0174  -0.0156  -0.0305   0.00    0.0
2022/12/25 03:21:00.000  -19.269270940  147.055693303    88.0954   6  16   0.0340   0.0231   0.0756   0.0174  -0.0155  -0.0307   0.00    0.0
2022/12/25 03:21:30.000  -19.269271099  147.055692955    88.1644   6  16   0.0340   0.0229   0.0737   0.0171  -0.0173  -0.0317   0.00    0.0
2022/12/25 03:22:00.000  -19.269270923  147.055693129    88.1570   6  16   0.0340   0.0227   0.0730   0.0171  -0.0178  -0.0322   0.00    0.0
2022/12/25 03:22:30.000  -19.269270822  147.055693357    88.1168   6  16   0.0336   0.0227   0.0726   0.0172  -0.0183  -0.0321   0.00    0.0
2022/12/25 03:23:30.000  -19.269270881  147.055693248    88.1447   6  20   0.0347   0.0226   0.0726   0.0174  -0.0184  -0.0324   0.00    0.0
2022/12/25 03:24:00.000  -19.269271015  147.055693265    88.1598   6  20   0.0332   0.0215   0.0710   0.0161  -0.0185  -0.0313   0.00    0.0
2022/12/25 03:24:30.000  -19.269271032  147.055693235    88.1619   6  20   0.0327   0.0210   0.0704   0.0156  -0.0186  -0.0309   0.00    0.0
2022/12/25 03:25:00.000  -19.269270870  147.055693251    88.1614   6  20   0.0325   0.0207   0.0701   0.0154  -0.0187  -0.0308   0.00    0.0
2022/12/25 03:25:30.000  -19.269271063  147.055693275    88.1241   6  20   0.0323   0.0206   0.0699   0.0153  -0.0186  -0.0307   0.00    0.0
2022/12/25 03:26:00.000  -19.269270930  147.055693169    88.1133   6  20   0.0324   0.0206   0.0698   0.0151  -0.0187  -0.0308   0.00    0.0
2022/12/25 03:26:30.000  -19.269270852  147.055693210    88.1606   6  20   0.0323   0.0204   0.0697   0.0151  -0.0188  -0.0308   0.00    0.0
2022/12/25 03:27:00.000  -19.269271059  147.055693245    88.1440   6  20   0.0323   0.0205   0.0696   0.0151  -0.0187  -0.0308   0.00    0.0
2022/12/25 03:27:30.000  -19.269270944  147.055693155    88.1391   6  20   0.0323   0.0204   0.0696   0.0150  -0.0188  -0.0309   0.00    0.0
2022/12/25 03:28:00.000  -19.269270791  147.055693161    88.1138   6  20   0.0323   0.0203   0.0695   0.0150  -0.0187  -0.0309   0.00    0.0
2022/12/25 03:28:30.000  -19.269271078  147.055693204    88.1448   6  20   0.0323   0.0202   0.0694   0.0150  -0.0187  -0.0309   0.00    0.0
2022/12/25 03:29:00.000  -19.269271074  147.055693315    88.1377   6  20   0.0324   0.0202   0.0694   0.0150  -0.0186  -0.0310   0.00    0.0
2022/12/25 03:29:30.000  -19.269271011  147.055693261    88.1654   6  20   0.0330   0.0203   0.0699   0.0152  -0.0189  -0.0318   0.00    0.0
2022/12/25 03:30:00.000  -19.269270820  147.055693151    88.1404   6  20   0.0330   0.0204   0.0698   0.0151  -0.0188  -0.0318   0.00    0.0
2022/12/25 03:30:30.000  -19.269270980  147.055693159    88.1319   6  20   0.0330   0.0203   0.0698   0.0152  -0.0187  -0.0319   0.00    0.0
